{"id":"54d32815-c385-4266-8248-34b1b22fe2f7","name":"NCAA Men's Division I Basketball Tournament","location":"Minneapolis, MN, USA","status":"scheduled","league":{"id":"cd4268ee-07aa-4c4d-a435-ec44ad2c76cb","name":"NCAA MEN","alias":"NCAAM"},"season":{"id":"c10c84fa-777a-4263-91fe-b42e64ee2180","year":2018,"type":"PST"},"rounds":[{"id":"01986d76-b6f4-431b-a0f9-f6e3d4baa36a","sequence":1,"name":"First Four","games":[],"bracketed":[{"bracket":{"id":"9b502924-105f-4dc4-9071-2715efc189dc","name":"East Regional","location":"Washington, DC, USA"},"games":[{"id":"b39e0a09-8600-4727-8042-531a9ca99be6","status":"scheduled","title":"First Four - Game 3","coverage":"full","scheduled":"2019-03-20T22:40:00+00:00","neutral_site":true,"conference_game":false,"track_on_court":true,"venue":{"id":"e43e6693-1879-433e-8287-0929d4b9b375","name":"UD Arena","capacity":13435,"address":"1801 South Edwin C Moses Boulevard","city":"Dayton","state":"OH","zip":"45417","country":"USA"},"broadcast":{"network":"TruTV","satellite":"246"},"home":{"name":"North Dakota State Bison","alias":"NDSU","id":"984e7518-e418-45d5-9797-979b8c2085c1","seed":16},"away":{"name":"North Carolina Central Eagles","alias":"NCCU","id":"e4c315a0-e83f-4d14-856e-34a0463059e3","seed":16}},{"id":"b4fcb86f-fdce-4044-ae72-3ea5f7b81e43","status":"scheduled","title":"First Four - Game 2","coverage":"full","scheduled":"2019-03-20T01:10:00+00:00","neutral_site":true,"conference_game":false,"track_on_court":true,"venue":{"id":"e43e6693-1879-433e-8287-0929d4b9b375","name":"UD Arena","capacity":13435,"address":"1801 South Edwin C Moses Boulevard","city":"Dayton","state":"OH","zip":"45417","country":"USA"},"broadcast":{"network":"TruTV","satellite":"246"},"home":{"name":"Belmont Bruins","alias":"BEL","id":"a0a22502-0d84-440c-84af-1fbb070ad54c","seed":11},"away":{"name":"Temple Owls","alias":"TEM","id":"8598d1b6-106b-4083-a512-2e495729525a","seed":11}}]},{"bracket":{"id":"9714a690-525d-408c-bdba-02d971a83e88","name":"West Regional","location":"Anaheim, CA, USA"},"games":[{"id":"5988f0a1-854d-4f25-9525-a980a9838d7f","status":"scheduled","title":"First Four - Game 4","coverage":"full","scheduled":"2019-03-21T01:10:00+00:00","neutral_site":true,"conference_game":false,"track_on_court":true,"venue":{"id":"e43e6693-1879-433e-8287-0929d4b9b375","name":"UD Arena","capacity":13435,"address":"1801 South Edwin C Moses Boulevard","city":"Dayton","state":"OH","zip":"45417","country":"USA"},"broadcast":{"network":"TruTV","satellite":"246"},"home":{"name":"Arizona State Sun Devils","alias":"ASU","id":"ad4bc983-8d2e-4e6f-a8f9-80840a786c64","seed":11},"away":{"name":"St. John's Red Storm","alias":"SJU","id":"c1f4aae1-aa16-4095-aeab-10e5c2a1236a","seed":11}},{"id":"563ef618-3c23-4e8d-acd9-892094d47646","status":"scheduled","title":"First Four - Game 1","coverage":"full","scheduled":"2019-03-19T22:40:00+00:00","neutral_site":true,"conference_game":false,"track_on_court":true,"venue":{"id":"e43e6693-1879-433e-8287-0929d4b9b375","name":"UD Arena","capacity":13435,"address":"1801 South Edwin C Moses Boulevard","city":"Dayton","state":"OH","zip":"45417","country":"USA"},"broadcast":{"network":"TruTV","satellite":"246"},"home":{"name":"Prairie View A&M Panthers","alias":"PV","id":"91ec9ba2-12e5-4a75-9410-a166c82163fd","seed":16},"away":{"name":"Fairleigh Dickinson Knights","alias":"FDU","id":"b71d5a1b-2671-4e5a-b94b-06bfb22a27dd","seed":16}}]}]},{"id":"ed89b8bb-1c19-43e1-b244-eb81e3f76617","sequence":2,"name":"First Round","games":[],"bracketed":[{"bracket":{"id":"f7658d72-a28e-4cd1-b4fc-38e6cabaf1a4","name":"South Regional","location":"Louisville, KY, USA"},"games":[{"id":"b7ba63a3-a002-4e18-9f22-ba782c169dfb","status":"scheduled","title":"South Regional - First Round - Game 3","coverage":"full","scheduled":"2019-03-22T20:30:00+00:00","neutral_site":true,"conference_game":false,"track_on_court":true,"venue":{"id":"3c07db0f-34cf-40c4-8335-698cc475a06a","name":"SAP Center at San Jose","capacity":18549,"address":"525 West Santa Clara Street","city":"San Jose","state":"CA","zip":"95113","country":"USA"},"broadcast":{"network":"TBS","satellite":"247"},"home":{"name":"Wisconsin Badgers","alias":"WIS","id":"c7569eae-5b93-4197-b204-6f3a62146b25","seed":5},"away":{"name":"Oregon Ducks","alias":"ORE","id":"1da70895-f77f-44ef-b216-d63c02e696eb","seed":12}},{"id":"d683117d-e47f-4941-a053-bcf5527acafa","status":"scheduled","title":"South Regional - First Round - Game 6","coverage":"full","scheduled":"2019-03-22T01:50:00+00:00","neutral_site":true,"conference_game":false,"track_on_court":true,"venue":{"id":"5754d0d6-6caf-4083-a1e4-267b2df97f60","name":"XL Center","capacity":16294,"address":"1 Civic Center Plaza","city":"Hartford","state":"CT","zip":"06103","country":"USA"},"broadcast":{"network":"TBS","satellite":"247"},"home":{"name":"Purdue Boilermakers","alias":"PUR","id":"12d7f888-675b-459f-9099-a38f771d8a95","seed":3},"away":{"name":"Old Dominion Monarchs","alias":"ODU","id":"ce967953-5c50-4220-87b2-99acb9606e84","seed":14}},{"id":"4c33d40a-cd01-482a-b048-e3be3658a069","status":"scheduled","title":"South Regional - First Round - Game 5","coverage":"full","scheduled":"2019-03-21T23:20:00+00:00","neutral_site":true,"conference_game":false,"track_on_court":true,"venue":{"id":"5754d0d6-6caf-4083-a1e4-267b2df97f60","name":"XL Center","capacity":16294,"address":"1 Civic Center Plaza","city":"Hartford","state":"CT","zip":"06103","country":"USA"},"broadcast":{"network":"TBS","satellite":"247"},"home":{"name":"Villanova Wildcats","alias":"VILL","id":"4383eb6a-7fd8-4ff2-94c5-43c933121e88","seed":6},"away":{"name":"Saint Mary's Gaels","alias":"SMC","id":"b18f34af-a7f1-4659-a2e5-fc11a31cd316","seed":11}},{"id":"d3512f84-0cdc-46a8-85ff-f94401254e0e","status":"scheduled","title":"South Regional - First Round - Game 1","coverage":"full","scheduled":"2019-03-22T19:10:00+00:00","neutral_site":true,"conference_game":false,"track_on_court":true,"venue":{"id":"874fedd5-4ab8-41fd-8b33-1ad9e93ed73a","name":"Colonial Life Arena","capacity":18000,"address":"801 Lincoln Street","city":"Columbia","state":"SC","zip":"29208","country":"USA"},"broadcast":{"network":"TruTV","satellite":"246"},"home":{"name":"Virginia Cavaliers","alias":"UVA","id":"56913910-87f7-4ad7-ae3b-5cd9fb218fd9","seed":1},"away":{"name":"Gardner-Webb Runnin' Bulldogs","alias":"WEBB","id":"79871449-f5a1-4650-b3cf-85b78fd6943e","seed":16}},{"id":"b1596d3e-52e6-49a1-a22d-4eaabe5c0846","status":"scheduled","title":"South Regional - First Round - Game 7","coverage":"full","scheduled":"2019-03-22T16:15:00+00:00","neutral_site":true,"conference_game":false,"track_on_court":true,"venue":{"id":"2d965e65-8de7-4036-a306-c744784ebfd5","name":"Nationwide Arena","capacity":19500,"address":"200 West Nationwide Boulevard","city":"Columbus","state":"OH","zip":"43215","country":"USA"},"broadcast":{"network":"CBS"},"home":{"name":"Cincinnati Bearcats","alias":"CIN","id":"a17dfc54-415f-49c3-a2e6-d6fa9db18b0a","seed":7},"away":{"name":"Iowa Hawkeyes","alias":"IOWA","id":"c10544de-e3bd-4776-ba2e-83df8c017fd1","seed":10}},{"id":"5de3e55d-798c-40e2-94ad-d88330df7754","status":"scheduled","title":"South Regional - First Round - Game 8","coverage":"full","scheduled":"2019-03-22T18:45:00+00:00","neutral_site":true,"conference_game":false,"track_on_court":true,"venue":{"id":"2d965e65-8de7-4036-a306-c744784ebfd5","name":"Nationwide Arena","capacity":19500,"address":"200 West Nationwide Boulevard","city":"Columbus","state":"OH","zip":"43215","country":"USA"},"broadcast":{"network":"CBS"},"home":{"name":"Tennessee Volunteers","alias":"TENN","id":"b827dbdf-230f-4916-9703-3bb9004e26eb","seed":2},"away":{"name":"Colgate Raiders","alias":"COLG","id":"80a19b57-d6ab-4bee-934f-33a72c2e958a","seed":15}},{"id":"8a8d6bd1-b102-44c1-8c27-30ef03a51e6a","status":"scheduled","title":"South Regional - First Round - Game 4","coverage":"full","scheduled":"2019-03-22T18:00:00+00:00","neutral_site":true,"conference_game":false,"track_on_court":true,"venue":{"id":"3c07db0f-34cf-40c4-8335-698cc475a06a","name":"SAP Center at San Jose","capacity":18549,"address":"525 West Santa Clara Street","city":"San Jose","state":"CA","zip":"95113","country":"USA"},"broadcast":{"network":"TBS","satellite":"247"},"home":{"name":"Kansas State Wildcats","alias":"KSU","id":"d203f38a-a166-4258-bca2-e161b591ecfb","seed":4},"away":{"name":"UC Irvine Anteaters","alias":"UCI","id":"39d00ef7-320d-47cf-a2fa-859bc24d16b4","seed":13}},{"id":"b4682081-9e8b-4953-98ec-fe3092a2e99c","status":"scheduled","title":"South Regional - First Round - Game 2","coverage":"full","scheduled":"2019-03-22T16:40:00+00:00","neutral_site":true,"conference_game":false,"track_on_court":true,"venue":{"id":"874fedd5-4ab8-41fd-8b33-1ad9e93ed73a","name":"Colonial Life Arena","capacity":18000,"address":"801 Lincoln Street","city":"Columbia","state":"SC","zip":"29208","country":"USA"},"broadcast":{"network":"TruTV","satellite":"246"},"home":{"name":"Ole Miss Rebels","alias":"MISS","id":"d7d668ec-edaa-4d6b-be25-2ebba4128643","seed":8},"away":{"name":"Oklahoma Sooners","alias":"OKLA","id":"b2fda957-e15c-4fb2-8a13-6e58496f561e","seed":9}}]},{"bracket":{"id":"9b502924-105f-4dc4-9071-2715efc189dc","name":"East Regional","location":"Washington, DC, USA"},"games":[{"id":"40c1f0e3-d565-410a-b5df-88def6e2e25d","status":"scheduled","title":"East Regional - First Round - Game 8","coverage":"full","scheduled":"2019-03-21T18:45:00+00:00","neutral_site":true,"conference_game":false,"track_on_court":true,"venue":{"id":"786bfe1c-6fa3-4177-a207-0242f7f68bfb","name":"Wells Fargo Arena","capacity":16110,"address":"730 3rd Street","city":"Des Moines","state":"IA","zip":"50309","country":"USA"},"broadcast":{"network":"CBS"},"home":{"name":"Michigan State Spartans","alias":"MSU","id":"a41d5a05-4c11-4171-a57e-e7a1ea325a6d","seed":2},"away":{"name":"Bradley Braves","alias":"BRAD","id":"b47d10b8-a2a5-47df-a2f9-7bd0b9d51beb","seed":15}},{"id":"5c71531c-908e-4a7e-bdde-26be0c8be0d9","status":"scheduled","title":"East Regional - First Round - Game 4","coverage":"full","scheduled":"2019-03-23T01:57:00+00:00","neutral_site":true,"conference_game":false,"track_on_court":true,"venue":{"id":"3c07db0f-34cf-40c4-8335-698cc475a06a","name":"SAP Center at San Jose","capacity":18549,"address":"525 West Santa Clara Street","city":"San Jose","state":"CA","zip":"95113","country":"USA"},"broadcast":{"network":"TruTV","satellite":"246"},"home":{"name":"Virginia Tech Hokies","alias":"VT","id":"324ccccc-575b-4b82-acb0-fbb8e68da13b","seed":4},"away":{"name":"Saint Louis Billikens","alias":"SLU","id":"1e42cce3-236b-4f3e-9650-2c45e6332e1e","seed":13}},{"id":"55cfcec8-36de-4917-a30b-473a98bee2bf","status":"scheduled","title":"East Regional - First Round - Game 2","coverage":"full","scheduled":"2019-03-23T01:40:00+00:00","neutral_site":true,"conference_game":false,"track_on_court":true,"venue":{"id":"874fedd5-4ab8-41fd-8b33-1ad9e93ed73a","name":"Colonial Life Arena","capacity":18000,"address":"801 Lincoln Street","city":"Columbia","state":"SC","zip":"29208","country":"USA"},"broadcast":{"network":"CBS"},"home":{"name":"Virginia Commonwealth Rams","alias":"VCU","id":"c1c1e6df-a383-4fbd-ba7b-32d4f9ef9518","seed":8},"away":{"name":"UCF Knights","alias":"UCF","id":"054c3e85-0552-4549-b123-7e84af6e7b6c","seed":9}},{"id":"42d3a9cd-b9af-43bc-b83c-ada352f3901c","status":"scheduled","title":"East Regional - First Round - Game 1","coverage":"full","scheduled":"2019-03-22T23:10:00+00:00","neutral_site":true,"conference_game":false,"track_on_court":true,"venue":{"id":"874fedd5-4ab8-41fd-8b33-1ad9e93ed73a","name":"Colonial Life Arena","capacity":18000,"address":"801 Lincoln Street","city":"Columbia","state":"SC","zip":"29208","country":"USA"},"broadcast":{"network":"CBS"},"home":{"name":"Duke Blue Devils","alias":"DUKE","id":"faeb1160-5d15-4f26-99fc-c441cf21fc7f","seed":1},"away":{"name":"First Four - Game 3 (win)","alias":"First Four - Game 3 (win)","source":{"id":"b39e0a09-8600-4727-8042-531a9ca99be6","title":"First Four - Game 3","status":"scheduled","coverage":"full","home_team":"984e7518-e418-45d5-9797-979b8c2085c1","away_team":"e4c315a0-e83f-4d14-856e-34a0463059e3","scheduled":"2019-03-20T22:40:00+00:00","outcome":"win"}}},{"id":"507d8600-5d94-403a-b2fd-c8b02f3d3ee5","status":"scheduled","title":"East Regional - First Round - Game 6","coverage":"full","scheduled":"2019-03-21T16:40:00+00:00","neutral_site":true,"conference_game":false,"track_on_court":true,"venue":{"id":"d5faea6b-2b9a-4b6c-8d3e-1a7b11f22343","name":"VyStar Veterans Memorial Arena","capacity":15000,"address":"300 A Philip Randolph Boulevard","city":"Jacksonville","state":"FL","zip":"32202","country":"USA"},"broadcast":{"network":"TruTV","satellite":"246"},"home":{"name":"LSU Tigers","alias":"LSU","id":"70e2bedd-3a0a-479c-ac99-e3f58aa6824b","seed":3},"away":{"name":"Yale Bulldogs","alias":"YALE","id":"ca478771-aa3d-4231-81e0-b70f519134fb","seed":14}},{"id":"7a2df4e0-1d47-4080-93dd-d418eca4af5d","status":"scheduled","title":"East Regional - First Round - Game 5","coverage":"full","scheduled":"2019-03-21T19:10:00+00:00","neutral_site":true,"conference_game":false,"track_on_court":true,"venue":{"id":"d5faea6b-2b9a-4b6c-8d3e-1a7b11f22343","name":"VyStar Veterans Memorial Arena","capacity":15000,"address":"300 A Philip Randolph Boulevard","city":"Jacksonville","state":"FL","zip":"32202","country":"USA"},"broadcast":{"network":"TruTV","satellite":"246"},"home":{"name":"Maryland Terrapins","alias":"MD","id":"2778d005-cc14-4e58-9bf2-3fc37bffb62f","seed":6},"away":{"name":"First Four - Game 2 (win)","alias":"First Four - Game 2 (win)","source":{"id":"b4fcb86f-fdce-4044-ae72-3ea5f7b81e43","title":"First Four - Game 2","status":"scheduled","coverage":"full","home_team":"a0a22502-0d84-440c-84af-1fbb070ad54c","away_team":"8598d1b6-106b-4083-a512-2e495729525a","scheduled":"2019-03-20T01:10:00+00:00","outcome":"win"}}},{"id":"920da5f9-ff04-4596-9523-1b580b68d318","status":"scheduled","title":"East Regional - First Round - Game 3","coverage":"full","scheduled":"2019-03-22T23:27:00+00:00","neutral_site":true,"conference_game":false,"track_on_court":true,"venue":{"id":"3c07db0f-34cf-40c4-8335-698cc475a06a","name":"SAP Center at San Jose","capacity":18549,"address":"525 West Santa Clara Street","city":"San Jose","state":"CA","zip":"95113","country":"USA"},"broadcast":{"network":"TruTV","satellite":"246"},"home":{"name":"Mississippi State Bulldogs","alias":"MSST","id":"a1ba4b89-d97c-44e2-835f-79ad3ccaa5ae","seed":5},"away":{"name":"Liberty Flames","alias":"LIB","id":"559db90c-741f-40d1-aa81-3fdd1d4889f3","seed":12}},{"id":"9c658994-592b-4e31-a9dd-a6a4611bed9b","status":"scheduled","title":"East Regional - First Round - Game 7","coverage":"full","scheduled":"2019-03-21T16:15:00+00:00","neutral_site":true,"conference_game":false,"track_on_court":true,"venue":{"id":"786bfe1c-6fa3-4177-a207-0242f7f68bfb","name":"Wells Fargo Arena","capacity":16110,"address":"730 3rd Street","city":"Des Moines","state":"IA","zip":"50309","country":"USA"},"broadcast":{"network":"CBS"},"home":{"name":"Louisville Cardinals","alias":"LOU","id":"b795ddbc-baab-4499-8803-52e8608520ab","seed":7},"away":{"name":"Minnesota Golden Gophers","alias":"MINN","id":"fa416692-7e09-4f0a-9bcf-0cf7d5149a14","seed":10}}]},{"bracket":{"id":"9714a690-525d-408c-bdba-02d971a83e88","name":"West Regional","location":"Anaheim, CA, USA"},"games":[{"id":"4eb6d6d8-73c2-46ed-a7f0-e6a7f52fe816","status":"scheduled","title":"West Regional - First Round - Game 2","coverage":"full","scheduled":"2019-03-22T01:57:00+00:00","neutral_site":true,"conference_game":false,"track_on_court":true,"venue":{"id":"53bac75a-a667-52b5-a416-b80718ae4ed2","name":"Vivint Smart Home Arena","capacity":18306,"address":"301 South Temple Street","city":"Salt Lake City","state":"UT","zip":"84101","country":"USA"},"broadcast":{"network":"TruTV","satellite":"246"},"home":{"name":"Syracuse Orange","alias":"SYR","id":"8cd24de1-2be8-4b77-bcfa-47be0495a5f4","seed":8},"away":{"name":"Baylor Bears","alias":"BAY","id":"db6e1cab-3fa3-4a93-a673-8b2a358ff4bf","seed":9}},{"id":"ea35b2f2-685e-4913-b2f2-495e30600ee3","status":"scheduled","title":"West Regional - First Round - Game 4","coverage":"full","scheduled":"2019-03-21T18:00:00+00:00","neutral_site":true,"conference_game":false,"track_on_court":true,"venue":{"id":"5754d0d6-6caf-4083-a1e4-267b2df97f60","name":"XL Center","capacity":16294,"address":"1 Civic Center Plaza","city":"Hartford","state":"CT","zip":"06103","country":"USA"},"broadcast":{"network":"TBS","satellite":"247"},"home":{"name":"Florida State Seminoles","alias":"FSU","id":"d3c8a767-b6fc-45d4-a5f2-18406f2993f1","seed":4},"away":{"name":"Vermont Catamounts","alias":"UVM","id":"18e89867-9201-41ce-ba19-fadddf92fa17","seed":13}},{"id":"71940c5d-1cdd-44d7-babd-37d1318f8519","status":"scheduled","title":"West Regional - First Round - Game 3","coverage":"full","scheduled":"2019-03-21T20:30:00+00:00","neutral_site":true,"conference_game":false,"track_on_court":true,"venue":{"id":"5754d0d6-6caf-4083-a1e4-267b2df97f60","name":"XL Center","capacity":16294,"address":"1 Civic Center Plaza","city":"Hartford","state":"CT","zip":"06103","country":"USA"},"broadcast":{"network":"TBS","satellite":"247"},"home":{"name":"Marquette Golden Eagles","alias":"MARQ","id":"06f7c904-0ac7-4125-b0f4-f4871bb69057","seed":5},"away":{"name":"Murray State Racers","alias":"MURR","id":"77a69fb0-1355-4342-ac09-b4cc7949d95e","seed":12}},{"id":"f82a8c08-be82-42e0-9fcb-cb44a63beb6f","status":"scheduled","title":"West Regional - First Round - Game 1","coverage":"full","scheduled":"2019-03-21T23:27:00+00:00","neutral_site":true,"conference_game":false,"track_on_court":true,"venue":{"id":"53bac75a-a667-52b5-a416-b80718ae4ed2","name":"Vivint Smart Home Arena","capacity":18306,"address":"301 South Temple Street","city":"Salt Lake City","state":"UT","zip":"84101","country":"USA"},"broadcast":{"network":"TruTV","satellite":"246"},"home":{"name":"Gonzaga Bulldogs","alias":"GONZ","id":"2f4d21f8-6d5f-48a5-abca-52a30583871a","seed":1},"away":{"name":"First Four - Game 1 (win)","alias":"First Four - Game 1 (win)","source":{"id":"563ef618-3c23-4e8d-acd9-892094d47646","title":"First Four - Game 1","status":"scheduled","coverage":"full","home_team":"91ec9ba2-12e5-4a75-9410-a166c82163fd","away_team":"b71d5a1b-2671-4e5a-b94b-06bfb22a27dd","scheduled":"2019-03-19T22:40:00+00:00","outcome":"win"}}},{"id":"2bf2678c-7fe0-466c-a964-b3bcfd93252a","status":"scheduled","title":"West Regional - First Round - Game 5","coverage":"full","scheduled":"2019-03-22T20:00:00+00:00","neutral_site":true,"conference_game":false,"track_on_court":true,"venue":{"id":"7aec3f52-9759-4b41-b4f4-c6645b4aef21","name":"BOK Center","capacity":17839,"address":"200 S. Denver Avenue","city":"Tulsa","state":"OK","zip":"74103","country":"USA"},"broadcast":{"network":"TNT","satellite":"245"},"home":{"name":"Buffalo Bulls","alias":"BUFF","id":"a9f5c9a2-342c-4881-9996-5d5c05ec9bd9","seed":6},"away":{"name":"First Four - Game 4 (win)","alias":"First Four - Game 4 (win)","source":{"id":"5988f0a1-854d-4f25-9525-a980a9838d7f","title":"First Four - Game 4","status":"scheduled","coverage":"full","home_team":"ad4bc983-8d2e-4e6f-a8f9-80840a786c64","away_team":"c1f4aae1-aa16-4095-aeab-10e5c2a1236a","scheduled":"2019-03-21T01:10:00+00:00","outcome":"win"}}},{"id":"e337a94c-c8dc-4b2e-907c-877a6398b12f","status":"scheduled","title":"West Regional - First Round - Game 6","coverage":"full","scheduled":"2019-03-22T17:30:00+00:00","neutral_site":true,"conference_game":false,"track_on_court":true,"venue":{"id":"7aec3f52-9759-4b41-b4f4-c6645b4aef21","name":"BOK Center","capacity":17839,"address":"200 S. Denver Avenue","city":"Tulsa","state":"OK","zip":"74103","country":"USA"},"broadcast":{"network":"TNT","satellite":"245"},"home":{"name":"Texas Tech Red Raiders","alias":"TTU","id":"f8c705b7-87d3-411a-9c8b-5124daab0469","seed":3},"away":{"name":"Northern Kentucky Norse","alias":"NKU","id":"ab9a1315-293f-42d3-a164-860216e81576","seed":14}},{"id":"fd3ed597-bba8-4836-822b-80f7deb3945b","status":"scheduled","title":"West Regional - First Round - Game 7","coverage":"full","scheduled":"2019-03-21T22:50:00+00:00","neutral_site":true,"conference_game":false,"track_on_court":true,"venue":{"id":"786bfe1c-6fa3-4177-a207-0242f7f68bfb","name":"Wells Fargo Arena","capacity":16110,"address":"730 3rd Street","city":"Des Moines","state":"IA","zip":"50309","country":"USA"},"broadcast":{"network":"TNT","satellite":"245"},"home":{"name":"Nevada Wolf Pack","alias":"NEV","id":"62a73b4a-e281-4483-a1f8-f1160a18e456","seed":7},"away":{"name":"Florida Gators","alias":"FLA","id":"912f8837-1d81-4ef9-a576-a21f271d4c64","seed":10}},{"id":"2ec0da44-b565-4d94-9677-fcf903021342","status":"scheduled","title":"West Regional - First Round - Game 8","coverage":"full","scheduled":"2019-03-22T01:20:00+00:00","neutral_site":true,"conference_game":false,"track_on_court":true,"venue":{"id":"786bfe1c-6fa3-4177-a207-0242f7f68bfb","name":"Wells Fargo Arena","capacity":16110,"address":"730 3rd Street","city":"Des Moines","state":"IA","zip":"50309","country":"USA"},"broadcast":{"network":"TNT","satellite":"245"},"home":{"name":"Michigan Wolverines","alias":"MICH","id":"bdc2561d-f603-4fab-a262-f1d2af462277","seed":2},"away":{"name":"Montana Grizzlies","alias":"MONT","id":"e3848467-66c0-41e5-8283-02e3586d8601","seed":15}}]},{"bracket":{"id":"1e25cc70-25d6-4324-b2da-e13fffd179f4","name":"Midwest Regional","location":"Kansas City, MO, USA"},"games":[{"id":"89f5b694-2001-4ff5-bfbe-7a885cb6142d","status":"scheduled","title":"Midwest Regional - First Round - Game 8","coverage":"full","scheduled":"2019-03-21T23:10:00+00:00","neutral_site":true,"conference_game":false,"track_on_court":true,"venue":{"id":"d5faea6b-2b9a-4b6c-8d3e-1a7b11f22343","name":"VyStar Veterans Memorial Arena","capacity":15000,"address":"300 A Philip Randolph Boulevard","city":"Jacksonville","state":"FL","zip":"32202","country":"USA"},"broadcast":{"network":"CBS"},"home":{"name":"Kentucky Wildcats","alias":"UK","id":"2267a1f4-68f6-418b-aaf6-2aa0c4b291f1","seed":2},"away":{"name":"Abilene Christian Wildcats","alias":"AC","id":"a52b2ece-1f87-45b5-ae1e-8d0920479965","seed":15}},{"id":"4a40b2f8-c7b5-4711-8277-e9febd4021e1","status":"scheduled","title":"Midwest Regional - First Round - Game 1","coverage":"full","scheduled":"2019-03-23T01:20:00+00:00","neutral_site":true,"conference_game":false,"track_on_court":true,"venue":{"id":"2d965e65-8de7-4036-a306-c744784ebfd5","name":"Nationwide Arena","capacity":19500,"address":"200 West Nationwide Boulevard","city":"Columbus","state":"OH","zip":"43215","country":"USA"},"broadcast":{"network":"TNT","satellite":"245"},"home":{"name":"North Carolina Tar Heels","alias":"UNC","id":"e9ca48b2-00ba-41c0-a02b-6885a2da1ff1","seed":1},"away":{"name":"Iona Gaels","alias":"IONA","id":"255c2a87-40c0-4989-bbb9-d286aac5d28e","seed":16}},{"id":"bc8d24fa-0bb2-4914-9571-6744342c4375","status":"scheduled","title":"Midwest Regional - First Round - Game 2","coverage":"full","scheduled":"2019-03-22T22:50:00+00:00","neutral_site":true,"conference_game":false,"track_on_court":true,"venue":{"id":"2d965e65-8de7-4036-a306-c744784ebfd5","name":"Nationwide Arena","capacity":19500,"address":"200 West Nationwide Boulevard","city":"Columbus","state":"OH","zip":"43215","country":"USA"},"broadcast":{"network":"TNT","satellite":"245"},"home":{"name":"Utah State Aggies","alias":"USU","id":"7672ff16-8436-47e6-8546-0fb5494ec7ee","seed":8},"away":{"name":"Washington Huskies","alias":"WASH","id":"e52c9644-717a-46f4-bf16-aeca000b3b44","seed":9}},{"id":"07ebfdf1-e879-4862-a046-39d41a7c1092","status":"scheduled","title":"Midwest Regional - First Round - Game 7","coverage":"full","scheduled":"2019-03-22T01:40:00+00:00","neutral_site":true,"conference_game":false,"track_on_court":true,"venue":{"id":"d5faea6b-2b9a-4b6c-8d3e-1a7b11f22343","name":"VyStar Veterans Memorial Arena","capacity":15000,"address":"300 A Philip Randolph Boulevard","city":"Jacksonville","state":"FL","zip":"32202","country":"USA"},"broadcast":{"network":"CBS"},"home":{"name":"Wofford Terriers","alias":"WOF","id":"9916713f-b243-452b-93ae-a2c3ccabf68b","seed":7},"away":{"name":"Seton Hall Pirates","alias":"HALL","id":"aef5e386-d8e8-460c-8014-3a2f090fd988","seed":10}},{"id":"3cb6b7fa-18d2-4225-bf17-48da9a11250c","status":"scheduled","title":"Midwest Regional - First Round - Game 5","coverage":"full","scheduled":"2019-03-23T01:50:00+00:00","neutral_site":true,"conference_game":false,"track_on_court":true,"venue":{"id":"7aec3f52-9759-4b41-b4f4-c6645b4aef21","name":"BOK Center","capacity":17839,"address":"200 S. Denver Avenue","city":"Tulsa","state":"OK","zip":"74103","country":"USA"},"broadcast":{"network":"TBS","satellite":"247"},"home":{"name":"Iowa State Cyclones","alias":"ISU","id":"0e4258fa-3154-4c16-b693-adecab184c6c","seed":6},"away":{"name":"Ohio State Buckeyes","alias":"OSU","id":"857462b3-0ab6-4d26-9669-10ca354e382b","seed":11}},{"id":"87e5805e-a5e0-4cb4-af43-05300525a1b4","status":"scheduled","title":"Midwest Regional - First Round - Game 3","coverage":"full","scheduled":"2019-03-21T17:30:00+00:00","neutral_site":true,"conference_game":false,"track_on_court":true,"venue":{"id":"53bac75a-a667-52b5-a416-b80718ae4ed2","name":"Vivint Smart Home Arena","capacity":18306,"address":"301 South Temple Street","city":"Salt Lake City","state":"UT","zip":"84101","country":"USA"},"broadcast":{"network":"TNT","satellite":"245"},"home":{"name":"Auburn Tigers","alias":"AUB","id":"0c0608b3-f349-4f5e-9a10-7e6a744dd0d2","seed":5},"away":{"name":"New Mexico State Aggies","alias":"NMSU","id":"5016fe1a-9571-4d10-bf5b-b9c1b496bd57","seed":12}},{"id":"c712cdca-769d-4195-93d8-aec132a0fdf3","status":"scheduled","title":"Midwest Regional - First Round - Game 6","coverage":"full","scheduled":"2019-03-22T23:20:00+00:00","neutral_site":true,"conference_game":false,"track_on_court":true,"venue":{"id":"fb41424a-7fe2-42da-b23f-baf91f94bb79","name":"Fertitta Center","capacity":8479,"address":"3422 Cullen Blvd","city":"Houston","state":"TX","zip":"77204","country":"USA"},"broadcast":{"network":"TBS","satellite":"247"},"home":{"name":"Houston Cougars","alias":"HOU","id":"1f99a164-d593-4d81-85d5-0d7889d6f486","seed":3},"away":{"name":"Georgia State Panthers","alias":"GAST","id":"94ea835b-8ce9-4de2-a5b1-971548fea974","seed":14}},{"id":"2f9f98c5-15c4-4312-982a-4ab8c7397f2d","status":"scheduled","title":"Midwest Regional - First Round - Game 4","coverage":"full","scheduled":"2019-03-21T20:00:00+00:00","neutral_site":true,"conference_game":false,"track_on_court":true,"venue":{"id":"53bac75a-a667-52b5-a416-b80718ae4ed2","name":"Vivint Smart Home Arena","capacity":18306,"address":"301 South Temple Street","city":"Salt Lake City","state":"UT","zip":"84101","country":"USA"},"broadcast":{"network":"TNT","satellite":"245"},"home":{"name":"Kansas Jayhawks","alias":"KU","id":"fae4855b-1b64-4b40-a632-9ed345e1e952","seed":4},"away":{"name":"Northeastern Huskies","alias":"NE","id":"93df9b18-e9fc-42a7-bb45-a736c203b4dc","seed":13}}]}]},{"id":"91ce259c-e4a5-40d0-9023-86135e864d1b","sequence":3,"name":"Second Round","games":[],"bracketed":[{"bracket":{"id":"9714a690-525d-408c-bdba-02d971a83e88","name":"West Regional","location":"Anaheim, CA, USA"},"games":[{"id":"9dcff6f5-fccb-4b08-910e-7c48d95bc654","status":"time-tbd","title":"West Regional - Second Round - Game 2","coverage":"full","scheduled":"2019-03-23T17:00:00+00:00","neutral_site":true,"conference_game":false,"track_on_court":true,"venue":{"id":"5754d0d6-6caf-4083-a1e4-267b2df97f60","name":"XL Center","capacity":16294,"address":"1 Civic Center Plaza","city":"Hartford","state":"CT","zip":"06103","country":"USA"},"broadcast":{"network":"CBS/TBS/TNT/TruTV"},"home":{"name":"West Regional - First Round - Game 4 (win)","alias":"West Regional - First Round - Game 4 (win)","source":{"id":"ea35b2f2-685e-4913-b2f2-495e30600ee3","title":"West Regional - First Round - Game 4","status":"scheduled","coverage":"full","home_team":"d3c8a767-b6fc-45d4-a5f2-18406f2993f1","away_team":"18e89867-9201-41ce-ba19-fadddf92fa17","scheduled":"2019-03-21T18:00:00+00:00","outcome":"win"}},"away":{"name":"West Regional - First Round - Game 3 (win)","alias":"West Regional - First Round - Game 3 (win)","source":{"id":"71940c5d-1cdd-44d7-babd-37d1318f8519","title":"West Regional - First Round - Game 3","status":"scheduled","coverage":"full","home_team":"06f7c904-0ac7-4125-b0f4-f4871bb69057","away_team":"77a69fb0-1355-4342-ac09-b4cc7949d95e","scheduled":"2019-03-21T20:30:00+00:00","outcome":"win"}}},{"id":"803b5a10-7b00-4a9a-a366-2d49a339f4f7","status":"time-tbd","title":"West Regional - Second Round - Game 1","coverage":"full","scheduled":"2019-03-23T17:00:00+00:00","neutral_site":true,"conference_game":false,"track_on_court":true,"venue":{"id":"53bac75a-a667-52b5-a416-b80718ae4ed2","name":"Vivint Smart Home Arena","capacity":18306,"address":"301 South Temple Street","city":"Salt Lake City","state":"UT","zip":"84101","country":"USA"},"broadcast":{"network":"CBS/TBS/TNT/TruTV"},"home":{"name":"West Regional - First Round - Game 1 (win)","alias":"West Regional - First Round - Game 1 (win)","source":{"id":"f82a8c08-be82-42e0-9fcb-cb44a63beb6f","title":"West Regional - First Round - Game 1","status":"scheduled","coverage":"full","home_team":"2f4d21f8-6d5f-48a5-abca-52a30583871a","scheduled":"2019-03-21T23:27:00+00:00","outcome":"win"}},"away":{"name":"West Regional - First Round - Game 2 (win)","alias":"West Regional - First Round - Game 2 (win)","source":{"id":"4eb6d6d8-73c2-46ed-a7f0-e6a7f52fe816","title":"West Regional - First Round - Game 2","status":"scheduled","coverage":"full","home_team":"8cd24de1-2be8-4b77-bcfa-47be0495a5f4","away_team":"db6e1cab-3fa3-4a93-a673-8b2a358ff4bf","scheduled":"2019-03-22T01:57:00+00:00","outcome":"win"}}},{"id":"fdcfe295-6c62-4cfb-8e77-6475cc0c5e09","status":"time-tbd","title":"West Regional - Second Round - Game 4","coverage":"full","scheduled":"2019-03-23T17:00:00+00:00","neutral_site":true,"conference_game":false,"track_on_court":true,"venue":{"id":"786bfe1c-6fa3-4177-a207-0242f7f68bfb","name":"Wells Fargo Arena","capacity":16110,"address":"730 3rd Street","city":"Des Moines","state":"IA","zip":"50309","country":"USA"},"broadcast":{"network":"CBS/TBS/TNT/TruTV"},"home":{"name":"West Regional - First Round - Game 8 (win)","alias":"West Regional - First Round - Game 8 (win)","source":{"id":"2ec0da44-b565-4d94-9677-fcf903021342","title":"West Regional - First Round - Game 8","status":"scheduled","coverage":"full","home_team":"bdc2561d-f603-4fab-a262-f1d2af462277","away_team":"e3848467-66c0-41e5-8283-02e3586d8601","scheduled":"2019-03-22T01:20:00+00:00","outcome":"win"}},"away":{"name":"West Regional - First Round - Game 7 (win)","alias":"West Regional - First Round - Game 7 (win)","source":{"id":"fd3ed597-bba8-4836-822b-80f7deb3945b","title":"West Regional - First Round - Game 7","status":"scheduled","coverage":"full","home_team":"62a73b4a-e281-4483-a1f8-f1160a18e456","away_team":"912f8837-1d81-4ef9-a576-a21f271d4c64","scheduled":"2019-03-21T22:50:00+00:00","outcome":"win"}}},{"id":"3e9b2173-3af5-4120-bec8-f325075197ad","status":"time-tbd","title":"West Regional - Second Round - Game 3","coverage":"full","scheduled":"2019-03-24T17:00:00+00:00","neutral_site":true,"conference_game":false,"track_on_court":true,"venue":{"id":"7aec3f52-9759-4b41-b4f4-c6645b4aef21","name":"BOK Center","capacity":17839,"address":"200 S. Denver Avenue","city":"Tulsa","state":"OK","zip":"74103","country":"USA"},"broadcast":{"network":"CBS/TBS/TNT/TruTV"},"home":{"name":"West Regional - First Round - Game 6 (win)","alias":"West Regional - First Round - Game 6 (win)","source":{"id":"e337a94c-c8dc-4b2e-907c-877a6398b12f","title":"West Regional - First Round - Game 6","status":"scheduled","coverage":"full","home_team":"f8c705b7-87d3-411a-9c8b-5124daab0469","away_team":"ab9a1315-293f-42d3-a164-860216e81576","scheduled":"2019-03-22T17:30:00+00:00","outcome":"win"}},"away":{"name":"West Regional - First Round - Game 5 (win)","alias":"West Regional - First Round - Game 5 (win)","source":{"id":"2bf2678c-7fe0-466c-a964-b3bcfd93252a","title":"West Regional - First Round - Game 5","status":"scheduled","coverage":"full","home_team":"a9f5c9a2-342c-4881-9996-5d5c05ec9bd9","scheduled":"2019-03-22T20:00:00+00:00","outcome":"win"}}}]},{"bracket":{"id":"f7658d72-a28e-4cd1-b4fc-38e6cabaf1a4","name":"South Regional","location":"Louisville, KY, USA"},"games":[{"id":"92255946-14c6-48c5-b280-10a91aea9024","status":"time-tbd","title":"South Regional - Second Round - Game 2","coverage":"full","scheduled":"2019-03-24T17:00:00+00:00","neutral_site":true,"conference_game":false,"track_on_court":true,"venue":{"id":"3c07db0f-34cf-40c4-8335-698cc475a06a","name":"SAP Center at San Jose","capacity":18549,"address":"525 West Santa Clara Street","city":"San Jose","state":"CA","zip":"95113","country":"USA"},"broadcast":{"network":"CBS/TBS/TNT/TruTV"},"home":{"name":"South Regional - First Round - Game 4 (win)","alias":"South Regional - First Round - Game 4 (win)","source":{"id":"8a8d6bd1-b102-44c1-8c27-30ef03a51e6a","title":"South Regional - First Round - Game 4","status":"scheduled","coverage":"full","home_team":"d203f38a-a166-4258-bca2-e161b591ecfb","away_team":"39d00ef7-320d-47cf-a2fa-859bc24d16b4","scheduled":"2019-03-22T18:00:00+00:00","outcome":"win"}},"away":{"name":"South Regional - First Round - Game 3 (win)","alias":"South Regional - First Round - Game 3 (win)","source":{"id":"b7ba63a3-a002-4e18-9f22-ba782c169dfb","title":"South Regional - First Round - Game 3","status":"scheduled","coverage":"full","home_team":"c7569eae-5b93-4197-b204-6f3a62146b25","away_team":"1da70895-f77f-44ef-b216-d63c02e696eb","scheduled":"2019-03-22T20:30:00+00:00","outcome":"win"}}},{"id":"22bcd655-3451-48e7-95a9-5f302b1b2a08","status":"time-tbd","title":"South Regional - Second Round - Game 4","coverage":"full","scheduled":"2019-03-24T17:00:00+00:00","neutral_site":true,"conference_game":false,"track_on_court":true,"venue":{"id":"2d965e65-8de7-4036-a306-c744784ebfd5","name":"Nationwide Arena","capacity":19500,"address":"200 West Nationwide Boulevard","city":"Columbus","state":"OH","zip":"43215","country":"USA"},"broadcast":{"network":"CBS/TBS/TNT/TruTV"},"home":{"name":"South Regional - First Round - Game 8 (win)","alias":"South Regional - First Round - Game 8 (win)","source":{"id":"5de3e55d-798c-40e2-94ad-d88330df7754","title":"South Regional - First Round - Game 8","status":"scheduled","coverage":"full","home_team":"b827dbdf-230f-4916-9703-3bb9004e26eb","away_team":"80a19b57-d6ab-4bee-934f-33a72c2e958a","scheduled":"2019-03-22T18:45:00+00:00","outcome":"win"}},"away":{"name":"South Regional - First Round - Game 7 (win)","alias":"South Regional - First Round - Game 7 (win)","source":{"id":"b1596d3e-52e6-49a1-a22d-4eaabe5c0846","title":"South Regional - First Round - Game 7","status":"scheduled","coverage":"full","home_team":"a17dfc54-415f-49c3-a2e6-d6fa9db18b0a","away_team":"c10544de-e3bd-4776-ba2e-83df8c017fd1","scheduled":"2019-03-22T16:15:00+00:00","outcome":"win"}}},{"id":"ecc9da00-df9d-46f3-939a-a52655e43371","status":"time-tbd","title":"South Regional - Second Round - Game 1","coverage":"full","scheduled":"2019-03-24T17:00:00+00:00","neutral_site":true,"conference_game":false,"track_on_court":true,"venue":{"id":"874fedd5-4ab8-41fd-8b33-1ad9e93ed73a","name":"Colonial Life Arena","capacity":18000,"address":"801 Lincoln Street","city":"Columbia","state":"SC","zip":"29208","country":"USA"},"broadcast":{"network":"CBS/TBS/TNT/TruTV"},"home":{"name":"South Regional - First Round - Game 1 (win)","alias":"South Regional - First Round - Game 1 (win)","source":{"id":"d3512f84-0cdc-46a8-85ff-f94401254e0e","title":"South Regional - First Round - Game 1","status":"scheduled","coverage":"full","home_team":"56913910-87f7-4ad7-ae3b-5cd9fb218fd9","away_team":"79871449-f5a1-4650-b3cf-85b78fd6943e","scheduled":"2019-03-22T19:10:00+00:00","outcome":"win"}},"away":{"name":"South Regional - First Round - Game 2 (win)","alias":"South Regional - First Round - Game 2 (win)","source":{"id":"b4682081-9e8b-4953-98ec-fe3092a2e99c","title":"South Regional - First Round - Game 2","status":"scheduled","coverage":"full","home_team":"d7d668ec-edaa-4d6b-be25-2ebba4128643","away_team":"b2fda957-e15c-4fb2-8a13-6e58496f561e","scheduled":"2019-03-22T16:40:00+00:00","outcome":"win"}}},{"id":"dae1b765-42cc-4176-8f0f-71d32f46fc78","status":"time-tbd","title":"South Regional - Second Round - Game 3","coverage":"full","scheduled":"2019-03-23T17:00:00+00:00","neutral_site":true,"conference_game":false,"track_on_court":true,"venue":{"id":"5754d0d6-6caf-4083-a1e4-267b2df97f60","name":"XL Center","capacity":16294,"address":"1 Civic Center Plaza","city":"Hartford","state":"CT","zip":"06103","country":"USA"},"broadcast":{"network":"CBS/TBS/TNT/TruTV"},"home":{"name":"South Regional - First Round - Game 6 (win)","alias":"South Regional - First Round - Game 6 (win)","source":{"id":"d683117d-e47f-4941-a053-bcf5527acafa","title":"South Regional - First Round - Game 6","status":"scheduled","coverage":"full","home_team":"12d7f888-675b-459f-9099-a38f771d8a95","away_team":"ce967953-5c50-4220-87b2-99acb9606e84","scheduled":"2019-03-22T01:50:00+00:00","outcome":"win"}},"away":{"name":"South Regional - First Round - Game 5 (win)","alias":"South Regional - First Round - Game 5 (win)","source":{"id":"4c33d40a-cd01-482a-b048-e3be3658a069","title":"South Regional - First Round - Game 5","status":"scheduled","coverage":"full","home_team":"4383eb6a-7fd8-4ff2-94c5-43c933121e88","away_team":"b18f34af-a7f1-4659-a2e5-fc11a31cd316","scheduled":"2019-03-21T23:20:00+00:00","outcome":"win"}}}]},{"bracket":{"id":"9b502924-105f-4dc4-9071-2715efc189dc","name":"East Regional","location":"Washington, DC, USA"},"games":[{"id":"b392b5f4-3b7b-4b27-88c3-da32b76833a7","status":"time-tbd","title":"East Regional - Second Round - Game 1","coverage":"full","scheduled":"2019-03-24T17:00:00+00:00","neutral_site":true,"conference_game":false,"track_on_court":true,"venue":{"id":"874fedd5-4ab8-41fd-8b33-1ad9e93ed73a","name":"Colonial Life Arena","capacity":18000,"address":"801 Lincoln Street","city":"Columbia","state":"SC","zip":"29208","country":"USA"},"broadcast":{"network":"CBS/TBS/TNT/TruTV"},"home":{"name":"East Regional - First Round - Game 1 (win)","alias":"East Regional - First Round - Game 1 (win)","source":{"id":"42d3a9cd-b9af-43bc-b83c-ada352f3901c","title":"East Regional - First Round - Game 1","status":"scheduled","coverage":"full","home_team":"faeb1160-5d15-4f26-99fc-c441cf21fc7f","scheduled":"2019-03-22T23:10:00+00:00","outcome":"win"}},"away":{"name":"East Regional - First Round - Game 2 (win)","alias":"East Regional - First Round - Game 2 (win)","source":{"id":"55cfcec8-36de-4917-a30b-473a98bee2bf","title":"East Regional - First Round - Game 2","status":"scheduled","coverage":"full","home_team":"c1c1e6df-a383-4fbd-ba7b-32d4f9ef9518","away_team":"054c3e85-0552-4549-b123-7e84af6e7b6c","scheduled":"2019-03-23T01:40:00+00:00","outcome":"win"}}},{"id":"b4cd2ad8-bd4d-45fc-bee9-a9c0e48be795","status":"time-tbd","title":"East Regional - Second Round - Game 2","coverage":"full","scheduled":"2019-03-24T17:00:00+00:00","neutral_site":true,"conference_game":false,"track_on_court":true,"venue":{"id":"3c07db0f-34cf-40c4-8335-698cc475a06a","name":"SAP Center at San Jose","capacity":18549,"address":"525 West Santa Clara Street","city":"San Jose","state":"CA","zip":"95113","country":"USA"},"broadcast":{"network":"CBS/TBS/TNT/TruTV"},"home":{"name":"East Regional - First Round - Game 4 (win)","alias":"East Regional - First Round - Game 4 (win)","source":{"id":"5c71531c-908e-4a7e-bdde-26be0c8be0d9","title":"East Regional - First Round - Game 4","status":"scheduled","coverage":"full","home_team":"324ccccc-575b-4b82-acb0-fbb8e68da13b","away_team":"1e42cce3-236b-4f3e-9650-2c45e6332e1e","scheduled":"2019-03-23T01:57:00+00:00","outcome":"win"}},"away":{"name":"East Regional - First Round - Game 3 (win)","alias":"East Regional - First Round - Game 3 (win)","source":{"id":"920da5f9-ff04-4596-9523-1b580b68d318","title":"East Regional - First Round - Game 3","status":"scheduled","coverage":"full","home_team":"a1ba4b89-d97c-44e2-835f-79ad3ccaa5ae","away_team":"559db90c-741f-40d1-aa81-3fdd1d4889f3","scheduled":"2019-03-22T23:27:00+00:00","outcome":"win"}}},{"id":"b1e2b995-af81-4838-9f56-6acf6ccd089a","status":"time-tbd","title":"East Regional - Second Round - Game 4","coverage":"full","scheduled":"2019-03-23T17:00:00+00:00","neutral_site":true,"conference_game":false,"track_on_court":true,"venue":{"id":"786bfe1c-6fa3-4177-a207-0242f7f68bfb","name":"Wells Fargo Arena","capacity":16110,"address":"730 3rd Street","city":"Des Moines","state":"IA","zip":"50309","country":"USA"},"broadcast":{"network":"CBS/TBS/TNT/TruTV"},"home":{"name":"East Regional - First Round - Game 8 (win)","alias":"East Regional - First Round - Game 8 (win)","source":{"id":"40c1f0e3-d565-410a-b5df-88def6e2e25d","title":"East Regional - First Round - Game 8","status":"scheduled","coverage":"full","home_team":"a41d5a05-4c11-4171-a57e-e7a1ea325a6d","away_team":"b47d10b8-a2a5-47df-a2f9-7bd0b9d51beb","scheduled":"2019-03-21T18:45:00+00:00","outcome":"win"}},"away":{"name":"East Regional - First Round - Game 7 (win)","alias":"East Regional - First Round - Game 7 (win)","source":{"id":"9c658994-592b-4e31-a9dd-a6a4611bed9b","title":"East Regional - First Round - Game 7","status":"scheduled","coverage":"full","home_team":"b795ddbc-baab-4499-8803-52e8608520ab","away_team":"fa416692-7e09-4f0a-9bcf-0cf7d5149a14","scheduled":"2019-03-21T16:15:00+00:00","outcome":"win"}}},{"id":"ccfcf317-c7ce-4e82-a055-7650b9ceb2f7","status":"time-tbd","title":"East Regional - Second Round - Game 3","coverage":"full","scheduled":"2019-03-23T17:00:00+00:00","neutral_site":true,"conference_game":false,"track_on_court":true,"venue":{"id":"d5faea6b-2b9a-4b6c-8d3e-1a7b11f22343","name":"VyStar Veterans Memorial Arena","capacity":15000,"address":"300 A Philip Randolph Boulevard","city":"Jacksonville","state":"FL","zip":"32202","country":"USA"},"broadcast":{"network":"CBS/TBS/TNT/TruTV"},"home":{"name":"East Regional - First Round - Game 6 (win)","alias":"East Regional - First Round - Game 6 (win)","source":{"id":"507d8600-5d94-403a-b2fd-c8b02f3d3ee5","title":"East Regional - First Round - Game 6","status":"scheduled","coverage":"full","home_team":"70e2bedd-3a0a-479c-ac99-e3f58aa6824b","away_team":"ca478771-aa3d-4231-81e0-b70f519134fb","scheduled":"2019-03-21T16:40:00+00:00","outcome":"win"}},"away":{"name":"East Regional - First Round - Game 5 (win)","alias":"East Regional - First Round - Game 5 (win)","source":{"id":"7a2df4e0-1d47-4080-93dd-d418eca4af5d","title":"East Regional - First Round - Game 5","status":"scheduled","coverage":"full","home_team":"2778d005-cc14-4e58-9bf2-3fc37bffb62f","scheduled":"2019-03-21T19:10:00+00:00","outcome":"win"}}}]},{"bracket":{"id":"1e25cc70-25d6-4324-b2da-e13fffd179f4","name":"Midwest Regional","location":"Kansas City, MO, USA"},"games":[{"id":"495d6e14-1258-40db-80ac-820fb8681180","status":"time-tbd","title":"Midwest Regional - Second Round - Game 3","coverage":"full","scheduled":"2019-03-24T17:00:00+00:00","neutral_site":true,"conference_game":false,"track_on_court":true,"venue":{"id":"7aec3f52-9759-4b41-b4f4-c6645b4aef21","name":"BOK Center","capacity":17839,"address":"200 S. Denver Avenue","city":"Tulsa","state":"OK","zip":"74103","country":"USA"},"broadcast":{"network":"CBS/TBS/TNT/TruTV"},"home":{"name":"Midwest Regional - First Round - Game 6 (win)","alias":"Midwest Regional - First Round - Game 6 (win)","source":{"id":"c712cdca-769d-4195-93d8-aec132a0fdf3","title":"Midwest Regional - First Round - Game 6","status":"scheduled","coverage":"full","home_team":"1f99a164-d593-4d81-85d5-0d7889d6f486","away_team":"94ea835b-8ce9-4de2-a5b1-971548fea974","scheduled":"2019-03-22T23:20:00+00:00","outcome":"win"}},"away":{"name":"Midwest Regional - First Round - Game 5 (win)","alias":"Midwest Regional - First Round - Game 5 (win)","source":{"id":"3cb6b7fa-18d2-4225-bf17-48da9a11250c","title":"Midwest Regional - First Round - Game 5","status":"scheduled","coverage":"full","home_team":"0e4258fa-3154-4c16-b693-adecab184c6c","away_team":"857462b3-0ab6-4d26-9669-10ca354e382b","scheduled":"2019-03-23T01:50:00+00:00","outcome":"win"}}},{"id":"a905cdd8-0f61-4667-933b-dc97a51ca955","status":"time-tbd","title":"Midwest Regional - Second Round - Game 1","coverage":"full","scheduled":"2019-03-24T17:00:00+00:00","neutral_site":true,"conference_game":false,"track_on_court":true,"venue":{"id":"2d965e65-8de7-4036-a306-c744784ebfd5","name":"Nationwide Arena","capacity":19500,"address":"200 West Nationwide Boulevard","city":"Columbus","state":"OH","zip":"43215","country":"USA"},"broadcast":{"network":"CBS/TBS/TNT/TruTV"},"home":{"name":"Midwest Regional - First Round - Game 1 (win)","alias":"Midwest Regional - First Round - Game 1 (win)","source":{"id":"4a40b2f8-c7b5-4711-8277-e9febd4021e1","title":"Midwest Regional - First Round - Game 1","status":"scheduled","coverage":"full","home_team":"e9ca48b2-00ba-41c0-a02b-6885a2da1ff1","away_team":"255c2a87-40c0-4989-bbb9-d286aac5d28e","scheduled":"2019-03-23T01:20:00+00:00","outcome":"win"}},"away":{"name":"Midwest Regional - First Round - Game 2 (win)","alias":"Midwest Regional - First Round - Game 2 (win)","source":{"id":"bc8d24fa-0bb2-4914-9571-6744342c4375","title":"Midwest Regional - First Round - Game 2","status":"scheduled","coverage":"full","home_team":"7672ff16-8436-47e6-8546-0fb5494ec7ee","away_team":"e52c9644-717a-46f4-bf16-aeca000b3b44","scheduled":"2019-03-22T22:50:00+00:00","outcome":"win"}}},{"id":"c505a614-91e7-4afe-b83c-25c20e192550","status":"time-tbd","title":"Midwest Regional - Second Round - Game 2","coverage":"full","scheduled":"2019-03-23T17:00:00+00:00","neutral_site":true,"conference_game":false,"track_on_court":true,"venue":{"id":"53bac75a-a667-52b5-a416-b80718ae4ed2","name":"Vivint Smart Home Arena","capacity":18306,"address":"301 South Temple Street","city":"Salt Lake City","state":"UT","zip":"84101","country":"USA"},"broadcast":{"network":"CBS/TBS/TNT/TruTV"},"home":{"name":"Midwest Regional - First Round - Game 4 (win)","alias":"Midwest Regional - First Round - Game 4 (win)","source":{"id":"2f9f98c5-15c4-4312-982a-4ab8c7397f2d","title":"Midwest Regional - First Round - Game 4","status":"scheduled","coverage":"full","home_team":"fae4855b-1b64-4b40-a632-9ed345e1e952","away_team":"93df9b18-e9fc-42a7-bb45-a736c203b4dc","scheduled":"2019-03-21T20:00:00+00:00","outcome":"win"}},"away":{"name":"Midwest Regional - First Round - Game 3 (win)","alias":"Midwest Regional - First Round - Game 3 (win)","source":{"id":"87e5805e-a5e0-4cb4-af43-05300525a1b4","title":"Midwest Regional - First Round - Game 3","status":"scheduled","coverage":"full","home_team":"0c0608b3-f349-4f5e-9a10-7e6a744dd0d2","away_team":"5016fe1a-9571-4d10-bf5b-b9c1b496bd57","scheduled":"2019-03-21T17:30:00+00:00","outcome":"win"}}},{"id":"fe293eff-e1a7-4f1f-9f3d-a251fc8ca006","status":"time-tbd","title":"Midwest Regional - Second Round - Game 4","coverage":"full","scheduled":"2019-03-23T17:00:00+00:00","neutral_site":true,"conference_game":false,"track_on_court":true,"venue":{"id":"d5faea6b-2b9a-4b6c-8d3e-1a7b11f22343","name":"VyStar Veterans Memorial Arena","capacity":15000,"address":"300 A Philip Randolph Boulevard","city":"Jacksonville","state":"FL","zip":"32202","country":"USA"},"broadcast":{"network":"CBS/TBS/TNT/TruTV"},"home":{"name":"Midwest Regional - First Round - Game 8 (win)","alias":"Midwest Regional - First Round - Game 8 (win)","source":{"id":"89f5b694-2001-4ff5-bfbe-7a885cb6142d","title":"Midwest Regional - First Round - Game 8","status":"scheduled","coverage":"full","home_team":"2267a1f4-68f6-418b-aaf6-2aa0c4b291f1","away_team":"a52b2ece-1f87-45b5-ae1e-8d0920479965","scheduled":"2019-03-21T23:10:00+00:00","outcome":"win"}},"away":{"name":"Midwest Regional - First Round - Game 7 (win)","alias":"Midwest Regional - First Round - Game 7 (win)","source":{"id":"07ebfdf1-e879-4862-a046-39d41a7c1092","title":"Midwest Regional - First Round - Game 7","status":"scheduled","coverage":"full","home_team":"9916713f-b243-452b-93ae-a2c3ccabf68b","away_team":"aef5e386-d8e8-460c-8014-3a2f090fd988","scheduled":"2019-03-22T01:40:00+00:00","outcome":"win"}}}]}]},{"id":"4a923b66-e534-4ba6-bf50-9ee5e9686810","sequence":4,"name":"Sweet 16","games":[],"bracketed":[{"bracket":{"id":"1e25cc70-25d6-4324-b2da-e13fffd179f4","name":"Midwest Regional","location":"Kansas City, MO, USA"},"games":[{"id":"068d28e6-c090-4a7f-9754-067e2cad49c2","status":"time-tbd","title":"Midwest Regional - Sweet 16 - Game 1","coverage":"full","scheduled":"2019-03-29T17:00:00+00:00","neutral_site":true,"conference_game":false,"track_on_court":true,"venue":{"id":"4676e3ef-ab0b-4787-a05c-1ebffb4c838a","name":"Sprint Center","capacity":18972,"address":"1407 Grand Boulevard","city":"Kansas City","state":"MO","zip":"64106","country":"USA"},"broadcast":{"network":"CBS/TBS/TNT"},"home":{"name":"Midwest Regional - Second Round - Game 1 (win)","alias":"Midwest Regional - Second Round - Game 1 (win)","source":{"id":"a905cdd8-0f61-4667-933b-dc97a51ca955","title":"Midwest Regional - Second Round - Game 1","status":"time-tbd","coverage":"full","scheduled":"2019-03-24T17:00:00+00:00","outcome":"win"}},"away":{"name":"Midwest Regional - Second Round - Game 2 (win)","alias":"Midwest Regional - Second Round - Game 2 (win)","source":{"id":"c505a614-91e7-4afe-b83c-25c20e192550","title":"Midwest Regional - Second Round - Game 2","status":"time-tbd","coverage":"full","scheduled":"2019-03-23T17:00:00+00:00","outcome":"win"}}},{"id":"eeced6f0-426e-405c-83e2-2fa66ba8ce0a","status":"time-tbd","title":"Midwest Regional - Sweet 16 - Game 2","coverage":"full","scheduled":"2019-03-29T17:00:00+00:00","neutral_site":true,"conference_game":false,"track_on_court":true,"venue":{"id":"4676e3ef-ab0b-4787-a05c-1ebffb4c838a","name":"Sprint Center","capacity":18972,"address":"1407 Grand Boulevard","city":"Kansas City","state":"MO","zip":"64106","country":"USA"},"broadcast":{"network":"CBS/TBS/TNT"},"home":{"name":"Midwest Regional - Second Round - Game 4 (win)","alias":"Midwest Regional - Second Round - Game 4 (win)","source":{"id":"fe293eff-e1a7-4f1f-9f3d-a251fc8ca006","title":"Midwest Regional - Second Round - Game 4","status":"time-tbd","coverage":"full","scheduled":"2019-03-23T17:00:00+00:00","outcome":"win"}},"away":{"name":"Midwest Regional - Second Round - Game 3 (win)","alias":"Midwest Regional - Second Round - Game 3 (win)","source":{"id":"495d6e14-1258-40db-80ac-820fb8681180","title":"Midwest Regional - Second Round - Game 3","status":"time-tbd","coverage":"full","scheduled":"2019-03-24T17:00:00+00:00","outcome":"win"}}}]},{"bracket":{"id":"9b502924-105f-4dc4-9071-2715efc189dc","name":"East Regional","location":"Washington, DC, USA"},"games":[{"id":"f07347bc-7ef1-4fde-b7cf-6ebd7940ba4a","status":"time-tbd","title":"East Regional - Sweet 16 - Game 1","coverage":"full","scheduled":"2019-03-29T17:00:00+00:00","neutral_site":true,"conference_game":false,"track_on_court":true,"venue":{"id":"f62d5b49-d646-56e9-ba60-a875a00830f8","name":"Capital One Arena","capacity":20356,"address":"601 F Street NW","city":"Washington","state":"DC","zip":"20004","country":"USA"},"broadcast":{"network":"CBS/TBS/TNT"},"home":{"name":"East Regional - Second Round - Game 1 (win)","alias":"East Regional - Second Round - Game 1 (win)","source":{"id":"b392b5f4-3b7b-4b27-88c3-da32b76833a7","title":"East Regional - Second Round - Game 1","status":"time-tbd","coverage":"full","scheduled":"2019-03-24T17:00:00+00:00","outcome":"win"}},"away":{"name":"East Regional - Second Round - Game 2 (win)","alias":"East Regional - Second Round - Game 2 (win)","source":{"id":"b4cd2ad8-bd4d-45fc-bee9-a9c0e48be795","title":"East Regional - Second Round - Game 2","status":"time-tbd","coverage":"full","scheduled":"2019-03-24T17:00:00+00:00","outcome":"win"}}},{"id":"58307436-a3d8-4363-bb18-31dcfa2196c8","status":"time-tbd","title":"East Regional - Sweet 16 - Game 2","coverage":"full","scheduled":"2019-03-29T17:00:00+00:00","neutral_site":true,"conference_game":false,"track_on_court":true,"venue":{"id":"f62d5b49-d646-56e9-ba60-a875a00830f8","name":"Capital One Arena","capacity":20356,"address":"601 F Street NW","city":"Washington","state":"DC","zip":"20004","country":"USA"},"broadcast":{"network":"CBS/TBS/TNT"},"home":{"name":"East Regional - Second Round - Game 4 (win)","alias":"East Regional - Second Round - Game 4 (win)","source":{"id":"b1e2b995-af81-4838-9f56-6acf6ccd089a","title":"East Regional - Second Round - Game 4","status":"time-tbd","coverage":"full","scheduled":"2019-03-23T17:00:00+00:00","outcome":"win"}},"away":{"name":"East Regional - Second Round - Game 3 (win)","alias":"East Regional - Second Round - Game 3 (win)","source":{"id":"ccfcf317-c7ce-4e82-a055-7650b9ceb2f7","title":"East Regional - Second Round - Game 3","status":"time-tbd","coverage":"full","scheduled":"2019-03-23T17:00:00+00:00","outcome":"win"}}}]},{"bracket":{"id":"9714a690-525d-408c-bdba-02d971a83e88","name":"West Regional","location":"Anaheim, CA, USA"},"games":[{"id":"66717f69-7e0c-4a15-99e2-0a2cee02654d","status":"time-tbd","title":"West Regional - Sweet 16 - Game 2","coverage":"full","scheduled":"2019-03-28T17:00:00+00:00","neutral_site":true,"conference_game":false,"track_on_court":true,"venue":{"id":"a3cc94cd-6c71-4fa6-9a55-64f69c71b329","name":"Honda Center","capacity":18336,"address":"2695 East Katella Avenue","city":"Anaheim","state":"CA","zip":"92806","country":"USA"},"broadcast":{"network":"CBS/TBS/TNT"},"home":{"name":"West Regional - Second Round - Game 4 (win)","alias":"West Regional - Second Round - Game 4 (win)","source":{"id":"fdcfe295-6c62-4cfb-8e77-6475cc0c5e09","title":"West Regional - Second Round - Game 4","status":"time-tbd","coverage":"full","scheduled":"2019-03-23T17:00:00+00:00","outcome":"win"}},"away":{"name":"West Regional - Second Round - Game 3 (win)","alias":"West Regional - Second Round - Game 3 (win)","source":{"id":"3e9b2173-3af5-4120-bec8-f325075197ad","title":"West Regional - Second Round - Game 3","status":"time-tbd","coverage":"full","scheduled":"2019-03-24T17:00:00+00:00","outcome":"win"}}},{"id":"c62cb85c-ce51-4656-b4f6-c1223230deec","status":"time-tbd","title":"West Regional - Sweet 16 - Game 1","coverage":"full","scheduled":"2019-03-28T17:00:00+00:00","neutral_site":true,"conference_game":false,"track_on_court":true,"venue":{"id":"a3cc94cd-6c71-4fa6-9a55-64f69c71b329","name":"Honda Center","capacity":18336,"address":"2695 East Katella Avenue","city":"Anaheim","state":"CA","zip":"92806","country":"USA"},"broadcast":{"network":"CBS/TBS/TNT"},"home":{"name":"West Regional - Second Round - Game 1 (win)","alias":"West Regional - Second Round - Game 1 (win)","source":{"id":"803b5a10-7b00-4a9a-a366-2d49a339f4f7","title":"West Regional - Second Round - Game 1","status":"time-tbd","coverage":"full","scheduled":"2019-03-23T17:00:00+00:00","outcome":"win"}},"away":{"name":"West Regional - Second Round - Game 2 (win)","alias":"West Regional - Second Round - Game 2 (win)","source":{"id":"9dcff6f5-fccb-4b08-910e-7c48d95bc654","title":"West Regional - Second Round - Game 2","status":"time-tbd","coverage":"full","scheduled":"2019-03-23T17:00:00+00:00","outcome":"win"}}}]},{"bracket":{"id":"f7658d72-a28e-4cd1-b4fc-38e6cabaf1a4","name":"South Regional","location":"Louisville, KY, USA"},"games":[{"id":"838b17aa-0509-4678-9147-a25b3871074f","status":"time-tbd","title":"South Regional - Sweet 16 - Game 1","coverage":"full","scheduled":"2019-03-28T17:00:00+00:00","neutral_site":true,"conference_game":false,"track_on_court":true,"venue":{"id":"b5f6d7ee-034b-4653-b6da-e0a01ed6f91a","name":"KFC Yum! Center","capacity":22090,"address":"1 Arena Plaza","city":"Louisville","state":"KY","zip":"40202","country":"USA"},"broadcast":{"network":"CBS/TBS/TNT"},"home":{"name":"South Regional - Second Round - Game 1 (win)","alias":"South Regional - Second Round - Game 1 (win)","source":{"id":"ecc9da00-df9d-46f3-939a-a52655e43371","title":"South Regional - Second Round - Game 1","status":"time-tbd","coverage":"full","scheduled":"2019-03-24T17:00:00+00:00","outcome":"win"}},"away":{"name":"South Regional - Second Round - Game 2 (win)","alias":"South Regional - Second Round - Game 2 (win)","source":{"id":"92255946-14c6-48c5-b280-10a91aea9024","title":"South Regional - Second Round - Game 2","status":"time-tbd","coverage":"full","scheduled":"2019-03-24T17:00:00+00:00","outcome":"win"}}},{"id":"66abc887-7054-407c-8bbf-5436d63ac3ff","status":"time-tbd","title":"South Regional - Sweet 16 - Game 2","coverage":"full","scheduled":"2019-03-28T17:00:00+00:00","neutral_site":true,"conference_game":false,"track_on_court":true,"venue":{"id":"b5f6d7ee-034b-4653-b6da-e0a01ed6f91a","name":"KFC Yum! Center","capacity":22090,"address":"1 Arena Plaza","city":"Louisville","state":"KY","zip":"40202","country":"USA"},"broadcast":{"network":"CBS/TBS/TNT"},"home":{"name":"South Regional - Second Round - Game 4 (win)","alias":"South Regional - Second Round - Game 4 (win)","source":{"id":"22bcd655-3451-48e7-95a9-5f302b1b2a08","title":"South Regional - Second Round - Game 4","status":"time-tbd","coverage":"full","scheduled":"2019-03-24T17:00:00+00:00","outcome":"win"}},"away":{"name":"South Regional - Second Round - Game 3 (win)","alias":"South Regional - Second Round - Game 3 (win)","source":{"id":"dae1b765-42cc-4176-8f0f-71d32f46fc78","title":"South Regional - Second Round - Game 3","status":"time-tbd","coverage":"full","scheduled":"2019-03-23T17:00:00+00:00","outcome":"win"}}}]}]},{"id":"84b65ae8-3f3e-47ab-acf3-00410a7d6663","sequence":5,"name":"Elite Eight","games":[],"bracketed":[{"bracket":{"id":"9b502924-105f-4dc4-9071-2715efc189dc","name":"East Regional","location":"Washington, DC, USA"},"games":[{"id":"e232a2cf-154d-4620-8c57-0798b22a3ee8","status":"time-tbd","title":"East Regional - Elite Eight - Game 1","coverage":"full","scheduled":"2019-03-31T17:00:00+00:00","neutral_site":true,"conference_game":false,"track_on_court":true,"venue":{"id":"f62d5b49-d646-56e9-ba60-a875a00830f8","name":"Capital One Arena","capacity":20356,"address":"601 F Street NW","city":"Washington","state":"DC","zip":"20004","country":"USA"},"broadcast":{"network":"CBS"},"home":{"name":"East Regional - Sweet 16 - Game 1 (win)","alias":"East Regional - Sweet 16 - Game 1 (win)","source":{"id":"f07347bc-7ef1-4fde-b7cf-6ebd7940ba4a","title":"East Regional - Sweet 16 - Game 1","status":"time-tbd","coverage":"full","scheduled":"2019-03-29T17:00:00+00:00","outcome":"win"}},"away":{"name":"East Regional - Sweet 16 - Game 2 (win)","alias":"East Regional - Sweet 16 - Game 2 (win)","source":{"id":"58307436-a3d8-4363-bb18-31dcfa2196c8","title":"East Regional - Sweet 16 - Game 2","status":"time-tbd","coverage":"full","scheduled":"2019-03-29T17:00:00+00:00","outcome":"win"}}}]},{"bracket":{"id":"9714a690-525d-408c-bdba-02d971a83e88","name":"West Regional","location":"Anaheim, CA, USA"},"games":[{"id":"2eb2df5b-d3ec-4e66-aad1-b0648fb1eb1a","status":"time-tbd","title":"West Regional - Elite Eight - Game 1","coverage":"full","scheduled":"2019-03-30T17:00:00+00:00","neutral_site":true,"conference_game":false,"track_on_court":true,"venue":{"id":"a3cc94cd-6c71-4fa6-9a55-64f69c71b329","name":"Honda Center","capacity":18336,"address":"2695 East Katella Avenue","city":"Anaheim","state":"CA","zip":"92806","country":"USA"},"broadcast":{"network":"TBS","satellite":"247"},"home":{"name":"West Regional - Sweet 16 - Game 1 (win)","alias":"West Regional - Sweet 16 - Game 1 (win)","source":{"id":"c62cb85c-ce51-4656-b4f6-c1223230deec","title":"West Regional - Sweet 16 - Game 1","status":"time-tbd","coverage":"full","scheduled":"2019-03-28T17:00:00+00:00","outcome":"win"}},"away":{"name":"West Regional - Sweet 16 - Game 2 (win)","alias":"West Regional - Sweet 16 - Game 2 (win)","source":{"id":"66717f69-7e0c-4a15-99e2-0a2cee02654d","title":"West Regional - Sweet 16 - Game 2","status":"time-tbd","coverage":"full","scheduled":"2019-03-28T17:00:00+00:00","outcome":"win"}}}]},{"bracket":{"id":"1e25cc70-25d6-4324-b2da-e13fffd179f4","name":"Midwest Regional","location":"Kansas City, MO, USA"},"games":[{"id":"f57832f2-dfa5-41cd-b194-8530592b1113","status":"time-tbd","title":"Midwest Regional - Elite Eight - Game 1","coverage":"full","scheduled":"2019-03-31T17:00:00+00:00","neutral_site":true,"conference_game":false,"track_on_court":true,"venue":{"id":"4676e3ef-ab0b-4787-a05c-1ebffb4c838a","name":"Sprint Center","capacity":18972,"address":"1407 Grand Boulevard","city":"Kansas City","state":"MO","zip":"64106","country":"USA"},"broadcast":{"network":"CBS"},"home":{"name":"Midwest Regional - Sweet 16 - Game 1 (win)","alias":"Midwest Regional - Sweet 16 - Game 1 (win)","source":{"id":"068d28e6-c090-4a7f-9754-067e2cad49c2","title":"Midwest Regional - Sweet 16 - Game 1","status":"time-tbd","coverage":"full","scheduled":"2019-03-29T17:00:00+00:00","outcome":"win"}},"away":{"name":"Midwest Regional - Sweet 16 - Game 2 (win)","alias":"Midwest Regional - Sweet 16 - Game 2 (win)","source":{"id":"eeced6f0-426e-405c-83e2-2fa66ba8ce0a","title":"Midwest Regional - Sweet 16 - Game 2","status":"time-tbd","coverage":"full","scheduled":"2019-03-29T17:00:00+00:00","outcome":"win"}}}]},{"bracket":{"id":"f7658d72-a28e-4cd1-b4fc-38e6cabaf1a4","name":"South Regional","location":"Louisville, KY, USA"},"games":[{"id":"93228182-ea68-4f55-b5e8-1e6e02cab93a","status":"time-tbd","title":"South Regional - Elite Eight - Game 1","coverage":"full","scheduled":"2019-03-30T17:00:00+00:00","neutral_site":true,"conference_game":false,"track_on_court":true,"venue":{"id":"b5f6d7ee-034b-4653-b6da-e0a01ed6f91a","name":"KFC Yum! Center","capacity":22090,"address":"1 Arena Plaza","city":"Louisville","state":"KY","zip":"40202","country":"USA"},"broadcast":{"network":"TBS","satellite":"247"},"home":{"name":"South Regional - Sweet 16 - Game 1 (win)","alias":"South Regional - Sweet 16 - Game 1 (win)","source":{"id":"838b17aa-0509-4678-9147-a25b3871074f","title":"South Regional - Sweet 16 - Game 1","status":"time-tbd","coverage":"full","scheduled":"2019-03-28T17:00:00+00:00","outcome":"win"}},"away":{"name":"South Regional - Sweet 16 - Game 2 (win)","alias":"South Regional - Sweet 16 - Game 2 (win)","source":{"id":"66abc887-7054-407c-8bbf-5436d63ac3ff","title":"South Regional - Sweet 16 - Game 2","status":"time-tbd","coverage":"full","scheduled":"2019-03-28T17:00:00+00:00","outcome":"win"}}}]}]},{"id":"8a208290-a19c-48df-8419-0c4c63b8ea70","sequence":6,"name":"Final Four","games":[{"id":"fd26d679-fa43-47cb-9db4-f6bc6d7fb454","status":"time-tbd","title":"Final Four - Semifinals - Game 1","coverage":"full","scheduled":"2019-04-06T17:00:00+00:00","neutral_site":true,"conference_game":false,"track_on_court":true,"venue":{"id":"cd8772bf-ddfc-4277-a600-378db919a184","name":"U.S. Bank Stadium","capacity":66555,"address":"401 Chicago Avenue","city":"Minneapolis","state":"MN","zip":"55415","country":"USA"},"broadcast":{"network":"CBS"},"home":{"name":"East Regional - Elite Eight - Game 1 (win)","alias":"East Regional - Elite Eight - Game 1 (win)","source":{"id":"e232a2cf-154d-4620-8c57-0798b22a3ee8","title":"East Regional - Elite Eight - Game 1","status":"time-tbd","coverage":"full","scheduled":"2019-03-31T17:00:00+00:00","outcome":"win"}},"away":{"name":"West Regional - Elite Eight - Game 1 (win)","alias":"West Regional - Elite Eight - Game 1 (win)","source":{"id":"2eb2df5b-d3ec-4e66-aad1-b0648fb1eb1a","title":"West Regional - Elite Eight - Game 1","status":"time-tbd","coverage":"full","scheduled":"2019-03-30T17:00:00+00:00","outcome":"win"}}},{"id":"36966dd9-1a58-417d-a17b-cf7d6dcd70b0","status":"time-tbd","title":"Final Four - Semifinals - Game 2","coverage":"full","scheduled":"2019-04-06T17:00:00+00:00","neutral_site":true,"conference_game":false,"track_on_court":true,"venue":{"id":"cd8772bf-ddfc-4277-a600-378db919a184","name":"U.S. Bank Stadium","capacity":66555,"address":"401 Chicago Avenue","city":"Minneapolis","state":"MN","zip":"55415","country":"USA"},"broadcast":{"network":"CBS"},"home":{"name":"South Regional - Elite Eight - Game 1 (win)","alias":"South Regional - Elite Eight - Game 1 (win)","source":{"id":"93228182-ea68-4f55-b5e8-1e6e02cab93a","title":"South Regional - Elite Eight - Game 1","status":"time-tbd","coverage":"full","scheduled":"2019-03-30T17:00:00+00:00","outcome":"win"}},"away":{"name":"Midwest Regional - Elite Eight - Game 1 (win)","alias":"Midwest Regional - Elite Eight - Game 1 (win)","source":{"id":"f57832f2-dfa5-41cd-b194-8530592b1113","title":"Midwest Regional - Elite Eight - Game 1","status":"time-tbd","coverage":"full","scheduled":"2019-03-31T17:00:00+00:00","outcome":"win"}}}],"bracketed":[]},{"id":"11652bb7-c630-4f45-899c-63aca56e8874","sequence":7,"name":"National Championship","games":[{"id":"0ccfff1a-9a39-48dc-a31d-4fde1c5e5348","status":"scheduled","title":"National Championship","coverage":"full","scheduled":"2019-04-09T01:20:00+00:00","neutral_site":true,"conference_game":false,"track_on_court":true,"venue":{"id":"cd8772bf-ddfc-4277-a600-378db919a184","name":"U.S. Bank Stadium","capacity":66555,"address":"401 Chicago Avenue","city":"Minneapolis","state":"MN","zip":"55415","country":"USA"},"broadcast":{"network":"CBS"},"home":{"name":"Final Four - Semifinals - Game 1 (win)","alias":"Final Four - Semifinals - Game 1 (win)","source":{"id":"fd26d679-fa43-47cb-9db4-f6bc6d7fb454","title":"Final Four - Semifinals - Game 1","status":"time-tbd","coverage":"full","scheduled":"2019-04-06T17:00:00+00:00","outcome":"win"}},"away":{"name":"Final Four - Semifinals - Game 2 (win)","alias":"Final Four - Semifinals - Game 2 (win)","source":{"id":"36966dd9-1a58-417d-a17b-cf7d6dcd70b0","title":"Final Four - Semifinals - Game 2","status":"time-tbd","coverage":"full","scheduled":"2019-04-06T17:00:00+00:00","outcome":"win"}}}],"bracketed":[]}]}